rosbagTimestamp,header,seq,stamp,secs,nsecs,frame_id,data
1477388576329747798,,192956,,1477388576,328723220,'',"""\n$GPGGA,094317.30,5603.98019370,N,00823.34744622,E,4,15,0.7,21.844,M,40.732,M,2.3,0015*71"""
1477388576330483126,,192957,,1477388576,330391673,'',"""\n$GPHDT,122.425,T*37"""
1477388576387685298,,192958,,1477388576,378621201,'',"""\n$GPGGA,094317.35,5603.98013820,N,00823.34742786,E,4,15,0.7,21.842,M,40.732,M,2.3,0015*7F"""
1477388576387739043,,192959,,1477388576,379468496,'',"""\n$GPHDT,122.588,T*31"""
1477388576435028142,,192960,,1477388576,434923984,'',"""\n$GPGGA,094317.40,5603.98008592,N,00823.34739356,E,4,15,0.7,21.834,M,40.732,M,2.4,0015*70"""
1477388576436602757,,192961,,1477388576,436523682,'',"""\n$GPHDT,123.425,T*36"""
1477388576478793868,,192962,,1477388576,478287816,'',"""\n$GPGGA,094317.45,5603.98003704,N,00823.34732802,E,4,15,0.7,21.854,M,40.732,M,2.5,0015*75"""
1477388576481181764,,192963,,1477388576,480978273,'',"""\n$GPHDT,124.110,T*32"""
1477388576532458074,,192964,,1477388576,532011088,'',"""\n$GPGGA,094317.50,5603.97998637,N,00823.34727386,E,4,15,0.7,21.854,M,40.732,M,2.5,0015*77"""
1477388576532476779,,192965,,1477388576,532119337,'',"""\n$GPHDT,123.015,T*31"""
1477388576577984778,,192966,,1477388576,577514553,'',"""\n$GPGGA,094317.55,5603.97993505,N,00823.34722293,E,4,15,0.7,21.863,M,40.732,M,2.5,0015*7F"""
1477388576580309287,,192967,,1477388576,579198263,'',"""\n$GPHDT,124.044,T*32"""
1477388576634896227,,192968,,1477388576,634702292,'',"""\n$GPGGA,094317.60,5603.97987876,N,00823.34718325,E,4,15,0.7,21.868,M,40.732,M,2.6,0015*78"""
1477388576636477714,,192969,,1477388576,636349847,'',"""\n$GPHDT,124.536,T*32"""
1477388576693546751,,192970,,1477388576,677654493,'',"""\n$GPGGA,094317.65,5603.97982428,N,00823.34712464,E,4,15,0.7,21.865,M,40.732,M,2.7,0015*7B"""
1477388576693576541,,192971,,1477388576,679141116,'',"""\n$GPHDT,124.873,T*3E"""
1477388576729033264,,192972,,1477388576,728948125,'',"""\n$GPGGA,094317.70,5603.97976895,N,00823.34706889,E,4,15,0.7,21.864,M,40.732,M,2.7,0015*75"""
1477388576730613042,,192973,,1477388576,730391862,'',"""\n$GPHDT,124.260,T*36"""
1477388576781567916,,192974,,1477388576,777946261,'',"""\n$GPGGA,094317.75,5603.97970056,N,00823.34703500,E,4,15,0.7,21.882,M,40.732,M,2.8,0015*7F"""
1477388576781746820,,192975,,1477388576,779598493,'',"""\n$GPHDT,124.576,T*36"""
1477388576843825934,,192976,,1477388576,838433782,'',"""\n$GPGGA,094317.80,5603.97964148,N,00823.34699223,E,4,15,0.7,21.876,M,40.732,M,2.8,0015*71"""
1477388576845435225,,192977,,1477388576,841389170,'',"""\n$GPHDT,124.292,T*3B"""
1477388576894010767,,192978,,1477388576,878122158,'',"""\n$GPGGA,094317.85,5603.97958810,N,00823.34694484,E,4,15,0.7,21.901,M,40.732,M,1.9,0015*7A"""
1477388576894071616,,192979,,1477388576,879801114,'',"""\n$GPHDT,124.371,T*37"""
1477388576932233980,,192980,,1477388576,931918124,'',"""\n$GPGGA,094317.90,5603.97953967,N,00823.34688762,E,4,15,0.7,21.895,M,40.732,M,1.9,0015*7E"""
1477388576932242703,,192981,,1477388576,932116612,'',"""\n$GPHDT,124.208,T*38"""
1477388576987233087,,192982,,1477388576,977593122,'',"""\n$GPGGA,094317.95,5603.97948417,N,00823.34684103,E,4,15,0.7,21.885,M,40.732,M,2.0,0015*7D"""
1477388576987268382,,192983,,1477388576,979442578,'',"""\n$GPHDT,123.234,T*30"""
1477388577050137655,,192984,,1477388577,47171894,'',"""\n$GPGGA,094318.00,5603.97942141,N,00823.34678392,E,4,15,0.7,21.895,M,40.732,M,2.0,0015*7A"""
1477388577050178953,,192985,,1477388577,47473757,'',"""\n$GPHDT,124.393,T*3B"""
1477388577080194033,,192986,,1477388577,79837878,'',"""\n$GPGGA,094318.05,5603.97935482,N,00823.34672879,E,4,15,0.7,21.905,M,40.732,M,2.0,0015*79"""
1477388577080213389,,192987,,1477388577,79900924,'',"""\n$GPHDT,124.679,T*3A"""
1477388577126673765,,192988,,1477388577,126504168,'',"""\n$GPGGA,094318.10,5603.97929217,N,00823.34668359,E,4,15,0.7,21.913,M,40.732,M,2.1,0015*7E"""
1477388577128300257,,192989,,1477388577,128191334,'',"""\n$GPHDT,124.165,T*30"""
1477388577178669175,,192990,,1477388577,177951579,'',"""\n$GPGGA,094318.15,5603.97924375,N,00823.34662011,E,4,15,0.7,21.927,M,40.732,M,2.2,0015*72"""
1477388577180451654,,192991,,1477388577,179642739,'',"""\n$GPHDT,123.778,T*3D"""
1477388577234698541,,192992,,1477388577,234346650,'',"""\n$GPGGA,094318.20,5603.97918552,N,00823.34655250,E,4,15,0.7,21.931,M,40.732,M,2.2,0015*7C"""
1477388577239129825,,192993,,1477388577,236159424,'',"""\n$GPHDT,124.749,T*38"""
1477388577276391591,,192994,,1477388577,276188162,'',"""\n$GPGGA,094318.25,5603.97913170,N,00823.34649642,E,4,15,0.7,21.926,M,40.732,M,2.3,0015*7B"""
1477388577282017688,,192995,,1477388577,281785176,'',"""\n$GPHDT,125.056,T*30"""
1477388577327597149,,192996,,1477388577,326515453,'',"""\n$GPGGA,094318.30,5603.97907234,N,00823.34644884,E,4,15,0.7,21.931,M,40.732,M,2.3,0015*76"""
1477388577338229168,,192997,,1477388577,329069930,'',"""\n$GPHDT,124.071,T*34"""
1477388577393235346,,192998,,1477388577,377540589,'',"""\n$GPGGA,094318.35,5603.97901009,N,00823.34640111,E,4,15,0.7,21.942,M,40.732,M,2.3,0015*7C"""
1477388577393305018,,192999,,1477388577,379774965,'',"""\n$GPHDT,123.246,T*35"""
1477388577440181371,,193000,,1477388577,439772458,'',"""\n$GPGGA,094318.40,5603.97894983,N,00823.34634267,E,4,15,0.7,21.945,M,40.732,M,2.4,0015*79"""
1477388577440226021,,193001,,1477388577,439807041,'',"""\n$GPHDT,123.490,T*38"""
1477388577477751824,,193002,,1477388577,477393689,'',"""\n$GPGGA,094318.45,5603.97889205,N,00823.34626429,E,4,15,0.7,21.957,M,40.732,M,2.5,0015*78"""
1477388577479250634,,193003,,1477388577,479055377,'',"""\n$GPHDT,124.916,T*3C"""
1477388577527763939,,193004,,1477388577,527351308,'',"""\n$GPGGA,094318.50,5603.97883920,N,00823.34620754,E,4,15,0.7,21.971,M,40.732,M,2.5,0015*71"""
1477388577529121449,,193005,,1477388577,528865181,'',"""\n$GPHDT,125.383,T*3B"""
1477388577578640473,,193006,,1477388577,577137234,'',"""\n$GPGGA,094318.55,5603.97878403,N,00823.34615234,E,4,15,0.7,21.962,M,40.732,M,2.5,0015*7B"""
1477388577579522865,,193007,,1477388577,578810759,'',"""\n$GPHDT,123.645,T*32"""
1477388577635267637,,193008,,1477388577,633182923,'',"""\n$GPGGA,094318.60,5603.97871317,N,00823.34610490,E,4,15,0.7,21.968,M,40.732,M,2.6,0015*72"""
1477388577635474814,,193009,,1477388577,634846662,'',"""\n$GPHDT,122.465,T*33"""
1477388577680190490,,193010,,1477388577,675698201,'',"""\n$GPGGA,094318.65,5603.97864363,N,00823.34605131,E,4,15,0.7,21.985,M,40.732,M,2.7,0015*78"""
1477388577680223176,,193011,,1477388577,677415120,'',"""\n$GPHDT,123.985,T*31"""
1477388577727270994,,193012,,1477388577,726833826,'',"""\n$GPGGA,094318.70,5603.97859102,N,00823.34598698,E,4,15,0.7,21.982,M,40.732,M,2.7,0015*73"""
1477388577731112784,,193013,,1477388577,728579131,'',"""\n$GPHDT,124.985,T*36"""
1477388577787586617,,193014,,1477388577,777807723,'',"""\n$GPGGA,094318.75,5603.97855108,N,00823.34594220,E,4,15,0.7,22.022,M,40.732,M,2.8,0015*74"""
1477388577787645455,,193015,,1477388577,779774216,'',"""\n$GPHDT,123.419,T*39"""
1477388577834451232,,193016,,1477388577,834175120,'',"""\n$GPGGA,094318.80,5603.97849873,N,00823.34587011,E,4,15,0.7,22.004,M,40.732,M,2.8,0015*70"""
1477388577836026122,,193017,,1477388577,835736963,'',"""\n$GPHDT,123.656,T*30"""
1477388577877862204,,193018,,1477388577,877191138,'',"""\n$GPGGA,094318.85,5603.97843756,N,00823.34584227,E,4,15,0.7,21.985,M,40.732,M,2.8,0015*70"""
1477388577879299620,,193019,,1477388577,878864268,'',"""\n$GPHDT,123.782,T*38"""
1477388577926870687,,193020,,1477388577,926622159,'',"""\n$GPGGA,094318.90,5603.97837024,N,00823.34579327,E,4,15,0.7,22.002,M,40.732,M,2.9,0015*72"""
1477388577928439539,,193021,,1477388577,928259491,'',"""\n$GPHDT,123.389,T*37"""
1477388577976636849,,193022,,1477388577,976389191,'',"""\n$GPGGA,094318.95,5603.97831558,N,00823.34573911,E,4,15,0.7,22.048,M,40.732,M,0.9,0015*76"""
1477388577978777900,,193023,,1477388577,978278381,'',"""\n$GPHDT,123.575,T*32"""
1477388578054537639,,193024,,1477388578,52988381,'',"""\n$GPGGA,094319.00,5603.97826873,N,00823.34568129,E,4,15,0.7,22.045,M,40.732,M,1.0,0015*75"""
1477388578056173486,,193025,,1477388578,53042024,'',"""\n$GPHDT,123.682,T*39"""
1477388578077526482,,193026,,1477388578,77174548,'',"""\n$GPGGA,094319.05,5603.97820714,N,00823.34562428,E,4,15,0.7,22.052,M,40.732,M,1.0,0015*70"""
1477388578079439811,,193027,,1477388578,79308023,'',"""\n$GPHDT,124.930,T*38"""
1477388578127460579,,193028,,1477388578,127077225,'',"""\n$GPGGA,094319.10,5603.97814605,N,00823.34558329,E,4,15,0.7,22.053,M,40.732,M,1.1,0015*7D"""
1477388578129639613,,193029,,1477388578,128733429,'',"""\n$GPHDT,124.926,T*3F"""
1477388578177785457,,193030,,1477388578,177419087,'',"""\n$GPGGA,094319.15,5603.97809214,N,00823.34553241,E,4,15,0.7,22.056,M,40.732,M,1.1,0015*71"""
1477388578179292515,,193031,,1477388578,179085786,'',"""\n$GPHDT,124.147,T*30"""
1477388578235212503,,193032,,1477388578,232959883,'',"""\n$GPGGA,094319.20,5603.97804380,N,00823.34548316,E,4,15,0.7,22.069,M,40.732,M,1.2,0015*70"""
1477388578235236934,,193033,,1477388578,234614678,'',"""\n$GPHDT,123.970,T*3B"""
1477388578276394422,,193034,,1477388578,276148805,'',"""\n$GPGGA,094319.25,5603.97799232,N,00823.34542858,E,4,15,0.7,22.062,M,40.732,M,1.3,0015*77"""
1477388578277586816,,193035,,1477388578,277391618,'',"""\n$GPHDT,125.315,T*34"""
1477388578327396233,,193036,,1477388578,326349410,'',"""\n$GPGGA,094319.30,5603.97793313,N,00823.34537791,E,4,15,0.7,22.070,M,40.732,M,1.3,0015*70"""
1477388578328321683,,193037,,1477388578,327993680,'',"""\n$GPHDT,125.730,T*37"""
1477388578382694747,,193038,,1477388578,375915739,'',"""\n$GPGGA,094319.35,5603.97787783,N,00823.34533182,E,4,15,0.7,22.081,M,40.732,M,1.4,0015*74"""
1477388578382729995,,193039,,1477388578,377587004,'',"""\n$GPHDT,123.132,T*35"""
1477388578437249789,,193040,,1477388578,433165236,'',"""\n$GPGGA,094319.40,5603.97781316,N,00823.34526789,E,4,15,0.7,22.087,M,40.732,M,1.4,0015*77"""
1477388578437255925,,193041,,1477388578,434633648,'',"""\n$GPHDT,123.124,T*32"""
1477388578479420120,,193042,,1477388578,479136654,'',"""\n$GPGGA,094319.45,5603.97773805,N,00823.34521035,E,4,15,0.7,22.100,M,40.732,M,1.5,0015*7E"""
1477388578479443085,,193043,,1477388578,479183037,'',"""\n$GPHDT,125.542,T*30"""
1477388578529382935,,193044,,1477388578,526996814,'',"""\n$GPGGA,094319.50,5603.97767643,N,00823.34516821,E,4,15,0.7,22.102,M,40.732,M,1.5,0015*78"""
1477388578529432597,,193045,,1477388578,529204479,'',"""\n$GPHDT,126.173,T*35"""
1477388578584549687,,193046,,1477388578,582341483,'',"""\n$GPGGA,094319.55,5603.97763157,N,00823.34511434,E,4,15,0.7,22.135,M,40.732,M,1.5,0015*70"""
1477388578584629180,,193047,,1477388578,582599439,'',"""\n$GPHDT,124.360,T*37"""
1477388578637873570,,193048,,1477388578,633026856,'',"""\n$GPGGA,094319.60,5603.97758631,N,00823.34504179,E,4,15,0.7,22.113,M,40.732,M,1.6,0015*76"""
1477388578637916748,,193049,,1477388578,634959642,'',"""\n$GPHDT,123.384,T*3A"""
1477388578678225560,,193050,,1477388578,678035870,'',"""\n$GPGGA,094319.65,5603.97752512,N,00823.34498122,E,4,15,0.7,22.113,M,40.732,M,1.6,0015*71"""
1477388578679982316,,193051,,1477388578,679751631,'',"""\n$GPHDT,125.244,T*31"""
1477388578727728880,,193052,,1477388578,727252130,'',"""\n$GPGGA,094319.70,5603.97745439,N,00823.34494715,E,4,15,0.7,22.118,M,40.732,M,1.7,0015*7F"""
1477388578729324950,,193053,,1477388578,729144270,'',"""\n$GPHDT,126.323,T*32"""
1477388578783368088,,193054,,1477388578,778217955,'',"""\n$GPGGA,094319.75,5603.97740292,N,00823.34490147,E,4,15,0.7,22.117,M,40.732,M,1.8,0015*7D"""
1477388578783470215,,193055,,1477388578,779388041,'',"""\n$GPHDT,124.894,T*37"""
1477388578833518667,,193056,,1477388578,833059184,'',"""\n$GPGGA,094319.80,5603.97736104,N,00823.34484930,E,4,15,0.7,22.141,M,40.732,M,1.8,0015*74"""
1477388578834993655,,193057,,1477388578,834707645,'',"""\n$GPHDT,122.464,T*32"""
1477388578877443613,,193058,,1477388578,877244467,'',"""\n$GPGGA,094319.85,5603.97731033,N,00823.34474871,E,4,15,0.7,22.134,M,40.732,M,1.9,0015*7B"""
1477388578879084085,,193059,,1477388578,878912075,'',"""\n$GPHDT,124.312,T*32"""
1477388578927055492,,193060,,1477388578,926284779,'',"""\n$GPGGA,094319.90,5603.97724028,N,00823.34467451,E,4,15,0.7,22.143,M,40.732,M,1.9,0015*7D"""
1477388578929084197,,193061,,1477388578,928569928,'',"""\n$GPHDT,127.060,T*37"""
1477388578978285205,,193062,,1477388578,977792305,'',"""\n$GPGGA,094319.95,5603.97717074,N,00823.34463786,E,4,15,0.7,22.154,M,40.732,M,2.0,0015*70"""
1477388578980387922,,193063,,1477388578,979389937,'',"""\n$GPHDT,126.321,T*30"""
1477388579045291680,,193064,,1477388579,45176504,'',"""\n$GPGGA,094320.00,5603.97712235,N,00823.34460126,E,4,15,0.7,22.136,M,40.732,M,2.0,0015*7F"""
1477388579046906565,,193065,,1477388579,46798458,'',"""\n$GPHDT,122.371,T*31"""
1477388579077500764,,193066,,1477388579,77158804,'',"""\n$GPGGA,094320.05,5603.97706560,N,00823.34453689,E,4,15,0.7,22.149,M,40.732,M,2.0,0015*72"""
1477388579080093768,,193067,,1477388579,78829570,'',"""\n$GPHDT,121.270,T*32"""
1477388579127289565,,193068,,1477388579,126991732,'',"""\n$GPGGA,094320.10,5603.97699608,N,00823.34446259,E,4,15,0.7,22.175,M,40.732,M,2.1,0015*7F"""
1477388579128782576,,193069,,1477388579,128655144,'',"""\n$GPHDT,125.059,T*3F"""
1477388579183463740,,193070,,1477388579,177315512,'',"""\n$GPGGA,094320.15,5603.97693007,N,00823.34440318,E,4,15,0.7,22.161,M,40.732,M,2.2,0015*7D"""
1477388579183495696,,193071,,1477388579,178950385,'',"""\n$GPHDT,126.683,T*3D"""
1477388579236475886,,193072,,1477388579,236192366,'',"""\n$GPGGA,094320.20,5603.97687836,N,00823.34436102,E,4,15,0.7,22.165,M,40.732,M,2.2,0015*78"""
1477388579236580975,,193073,,1477388579,236358358,'',"""\n$GPHDT,123.209,T*3E"""
1477388579277787789,,193074,,1477388579,277572052,'',"""\n$GPGGA,094320.25,5603.97682980,N,00823.34431249,E,4,15,0.7,22.171,M,40.732,M,2.3,0015*7B"""
1477388579279502004,,193075,,1477388579,279288824,'',"""\n$GPHDT,120.186,T*39"""
1477388579340001925,,193076,,1477388579,328084766,'',"""\n$GPGGA,094320.30,5603.97675486,N,00823.34425629,E,4,15,0.7,22.178,M,40.732,M,2.3,0015*72"""
1477388579340137778,,193077,,1477388579,330809967,'',"""\n$GPHDT,123.123,T*35"""
1477388579379327009,,193078,,1477388579,379026588,'',"""\n$GPGGA,094320.35,5603.97669435,N,00823.34420187,E,4,15,0.7,22.174,M,40.732,M,2.3,0015*78"""
1477388579379377638,,193079,,1477388579,379191695,'',"""\n$GPHDT,125.778,T*3B"""
1477388579437340280,,193080,,1477388579,436418508,'',"""\n$GPGGA,094320.40,5603.97664545,N,00823.34416367,E,4,15,0.7,22.190,M,40.732,M,2.4,0015*75"""
1477388579437346575,,193081,,1477388579,436446920,'',"""\n$GPHDT,124.442,T*30"""
1477388579478097149,,193082,,1477388579,477604659,'',"""\n$GPGGA,094320.45,5603.97660793,N,00823.34411765,E,4,15,0.7,22.179,M,40.732,M,2.5,0015*7A"""
1477388579479813082,,193083,,1477388579,479229672,'',"""\n$GPHDT,120.843,T*39"""
1477388579537367778,,193084,,1477388579,529415055,'',"""\n$GPGGA,094320.50,5603.97654637,N,00823.34406089,E,4,15,0.7,22.198,M,40.732,M,2.5,0015*7A"""
1477388579537412067,,193085,,1477388579,529901435,'',"""\n$GPHDT,122.339,T*3D"""
1477388579585984449,,193086,,1477388579,578307391,'',"""\n$GPGGA,094320.55,5603.97648067,N,00823.34400150,E,4,15,0.7,22.194,M,40.732,M,2.5,0015*7E"""
1477388579587983004,,193087,,1477388579,586362661,'',"""\n$GPHDT,125.271,T*37"""
1477388579635573792,,193088,,1477388579,635054514,'',"""\n$GPGGA,094320.60,5603.97642847,N,00823.34395644,E,4,15,0.7,22.210,M,40.732,M,2.6,0015*7D"""
1477388579641308991,,193089,,1477388579,636348451,'',"""\n$GPHDT,124.308,T*39"""
1477388579678881301,,193090,,1477388579,677113368,'',"""\n$GPGGA,094320.65,5603.97637229,N,00823.34389516,E,4,15,0.7,22.218,M,40.732,M,2.7,0015*78"""
1477388579680105559,,193091,,1477388579,679619181,'',"""\n$GPHDT,122.956,T*3E"""
1477388579727823106,,193092,,1477388579,727278840,'',"""\n$GPGGA,094320.70,5603.97632133,N,00823.34383423,E,4,15,0.7,22.211,M,40.732,M,2.7,0015*75"""
1477388579728972259,,193093,,1477388579,728821240,'',"""\n$GPHDT,123.101,T*35"""
1477388579778056070,,193094,,1477388579,777249071,'',"""\n$GPGGA,094320.75,5603.97626703,N,00823.34379025,E,4,15,0.7,22.210,M,40.732,M,2.8,0015*79"""
1477388579780327647,,193095,,1477388579,778902779,'',"""\n$GPHDT,124.868,T*34"""
1477388579842403253,,193096,,1477388579,841828945,'',"""\n$GPGGA,094320.80,5603.97621029,N,00823.34375398,E,4,15,0.7,22.236,M,40.732,M,2.8,0015*76"""
1477388579843961931,,193097,,1477388579,843446414,'',"""\n$GPHDT,125.188,T*32"""
1477388579884414670,,193098,,1477388579,878358172,'',"""\n$GPGGA,094320.85,5603.97615281,N,00823.34371125,E,4,15,0.7,22.243,M,40.732,M,2.8,0015*76"""
1477388579884489872,,193099,,1477388579,879985751,'',"""\n$GPHDT,123.251,T*33"""
1477388579928420439,,193100,,1477388579,927164961,'',"""\n$GPGGA,094320.90,5603.97609627,N,00823.34367323,E,4,15,0.7,22.253,M,40.732,M,2.9,0015*74"""
1477388579928784054,,193101,,1477388579,928479997,'',"""\n$GPHDT,123.188,T*34"""
1477388579995506797,,193102,,1477388579,979524886,'',"""\n$GPGGA,094320.95,5603.97603347,N,00823.34362259,E,4,14,0.8,22.235,M,40.732,M,2.0,0015*76"""
1477388579995541091,,193103,,1477388579,980035857,'',"""\n$GPHDT,124.087,T*3D"""
1477388580047423145,,193104,,1477388580,46952144,'',"""\n$GPGGA,094321.00,5603.97597535,N,00823.34357491,E,4,14,0.8,22.236,M,40.732,M,2.0,0015*71"""
1477388580047746510,,193105,,1477388580,47344333,'',"""\n$GPHDT,125.423,T*36"""
1477388580078074935,,193106,,1477388580,77239289,'',"""\n$GPGGA,094321.05,5603.97591519,N,00823.34352271,E,4,14,0.8,22.245,M,40.732,M,2.0,0015*75"""
1477388580079325956,,193107,,1477388580,78940717,'',"""\n$GPHDT,124.878,T*35"""
1477388580126837459,,193108,,1477388580,126505091,'',"""\n$GPGGA,094321.10,5603.97586121,N,00823.34346772,E,4,14,0.8,22.259,M,40.732,M,2.1,0015*77"""
1477388580128528125,,193109,,1477388580,128209914,'',"""\n$GPHDT,123.559,T*3C"""
1477388580179993851,,193110,,1477388580,177649495,'',"""\n$GPGGA,094321.15,5603.97580691,N,00823.34341837,E,4,14,0.8,22.263,M,40.732,M,2.2,0015*7B"""
1477388580180007425,,193111,,1477388580,179334073,'',"""\n$GPHDT,123.571,T*36"""
1477388580235901821,,193112,,1477388580,235762687,'',"""\n$GPGGA,094321.20,5603.97574642,N,00823.34337069,E,4,14,0.8,22.263,M,40.732,M,2.2,0015*7A"""
1477388580235911365,,193113,,1477388580,235801950,'',"""\n$GPHDT,124.835,T*3C"""
1477388580284886919,,193114,,1477388580,283783725,'',"""\n$GPGGA,094321.25,5603.97569004,N,00823.34331340,E,4,14,0.8,22.271,M,40.732,M,2.3,0015*7B"""
1477388580284919944,,193115,,1477388580,283897788,'',"""\n$GPHDT,124.994,T*36"""
1477388580326899824,,193116,,1477388580,326691230,'',"""\n$GPGGA,094321.30,5603.97563714,N,00823.34325951,E,4,14,0.8,22.269,M,40.732,M,2.3,0015*75"""
1477388580328464105,,193117,,1477388580,328352009,'',"""\n$GPHDT,123.782,T*38"""
1477388580377588265,,193118,,1477388580,377494599,'',"""\n$GPGGA,094321.35,5603.97557806,N,00823.34322153,E,4,14,0.8,22.270,M,40.732,M,2.3,0015*7E"""
1477388580379284489,,193119,,1477388580,379201270,'',"""\n$GPHDT,123.567,T*31"""
1477388580440583521,,193120,,1477388580,435481465,'',"""\n$GPGGA,094321.40,5603.97551459,N,00823.34317784,E,4,14,0.8,22.282,M,40.732,M,2.4,0015*7C"""
1477388580440661467,,193121,,1477388580,436203935,'',"""\n$GPHDT,125.014,T*36"""
1477388580483074028,,193122,,1477388580,479879150,'',"""\n$GPGGA,094321.45,5603.97545894,N,00823.34308783,E,4,14,0.8,22.312,M,40.732,M,2.5,0015*71"""
1477388580483116215,,193123,,1477388580,480221937,'',"""\n$GPHDT,125.874,T*38"""
1477388580527181763,,193124,,1477388580,526460563,'',"""\n$GPGGA,094321.50,5603.97542326,N,00823.34303886,E,4,14,0.8,22.300,M,40.732,M,2.5,0015*72"""
1477388580528923157,,193125,,1477388580,528735307,'',"""\n$GPHDT,124.518,T*3E"""
1477388580578046541,,193126,,1477388580,577516479,'',"""\n$GPGGA,094321.55,5603.97536308,N,00823.34299926,E,4,14,0.8,22.295,M,40.732,M,2.5,0015*7C"""
1477388580579657328,,193127,,1477388580,579312070,'',"""\n$GPHDT,123.985,T*31"""
1477388580636139545,,193128,,1477388580,635159438,'',"""\n$GPGGA,094321.60,5603.97529380,N,00823.34295404,E,4,14,0.8,22.287,M,40.732,M,2.6,0015*75"""
1477388580636904203,,193129,,1477388580,636501495,'',"""\n$GPHDT,124.340,T*35"""
1477388580675888346,,193130,,1477388580,675745740,'',"""\n$GPGGA,094321.65,5603.97522770,N,00823.34290345,E,4,14,0.8,22.303,M,40.732,M,2.7,0015*7B"""
1477388580678098948,,193131,,1477388580,677948313,'',"""\n$GPHDT,124.617,T*32"""
1477388580727445116,,193132,,1477388580,726989632,'',"""\n$GPGGA,094321.70,5603.97518267,N,00823.34282682,E,4,14,0.8,22.320,M,40.732,M,2.7,0015*79"""
1477388580729425152,,193133,,1477388580,728799509,'',"""\n$GPHDT,124.441,T*33"""
1477388580777833918,,193134,,1477388580,777559801,'',"""\n$GPGGA,094321.75,5603.97511663,N,00823.34274242,E,4,14,0.8,22.338,M,40.732,M,2.8,0015*72"""
1477388580779437528,,193135,,1477388580,779272808,'',"""\n$GPHDT,124.439,T*3C"""
1477388580834711201,,193136,,1477388580,834494053,'',"""\n$GPGGA,094321.80,5603.97505960,N,00823.34268856,E,4,14,0.8,22.320,M,40.732,M,2.8,0015*7A"""
1477388580840040866,,193137,,1477388580,836175939,'',"""\n$GPHDT,124.488,T*36"""
1477388580877438466,,193138,,1477388580,877297288,'',"""\n$GPGGA,094321.85,5603.97498382,N,00823.34265625,E,4,14,0.8,22.321,M,40.732,M,2.8,0015*7A"""
1477388580879078622,,193139,,1477388580,878967965,'',"""\n$GPHDT,123.505,T*35"""
1477388580927576360,,193140,,1477388580,927253891,'',"""\n$GPGGA,094321.90,5603.97492504,N,00823.34260835,E,4,14,0.8,22.366,M,40.732,M,2.9,0015*74"""
1477388580929065680,,193141,,1477388580,928903575,'',"""\n$GPHDT,122.209,T*3F"""
1477388580980333861,,193142,,1477388580,979972821,'',"""\n$GPGGA,094321.95,5603.97487584,N,00823.34254422,E,4,14,0.8,22.362,M,40.732,M,3.0,0015*7C"""
1477388580980442570,,193143,,1477388580,980120719,'',"""\n$GPHDT,123.257,T*35"""
1477388581048087639,,193144,,1477388581,44818701,'',"""\n$GPGGA,094322.00,5603.97481693,N,00823.34247522,E,4,14,0.8,22.355,M,40.732,M,3.0,0015*77"""
1477388581048093705,,193145,,1477388581,46687327,'',"""\n$GPHDT,124.154,T*32"""
1477388581088608643,,193146,,1477388581,77741630,'',"""\n$GPGGA,094322.05,5603.97476601,N,00823.34241283,E,4,14,0.8,22.366,M,40.732,M,3.0,0015*7B"""
1477388581088628296,,193147,,1477388581,79009672,'',"""\n$GPHDT,123.925,T*3B"""
1477388581135411705,,193148,,1477388581,127842630,'',"""\n$GPGGA,094322.10,5603.97470752,N,00823.34235647,E,4,14,0.8,22.361,M,40.732,M,3.1,0015*77"""
1477388581135418756,,193149,,1477388581,130416285,'',"""\n$GPHDT,122.465,T*33"""
1477388581177878356,,193150,,1477388581,177558459,'',"""\n$GPGGA,094322.15,5603.97463954,N,00823.34230917,E,4,14,0.8,22.368,M,40.732,M,3.2,0015*7D"""
1477388581179542970,,193151,,1477388581,179310983,'',"""\n$GPHDT,121.094,T*3A"""
1477388581237437867,,193152,,1477388581,235661649,'',"""\n$GPGGA,094322.20,5603.97457218,N,00823.34225199,E,4,14,0.8,22.374,M,40.732,M,3.2,0015*78"""
1477388581237499081,,193153,,1477388581,236828150,'',"""\n$GPHDT,122.298,T*37"""
1477388581278724551,,193154,,1477388581,277246337,'',"""\n$GPGGA,094322.25,5603.97450652,N,00823.34217845,E,4,14,0.8,22.383,M,40.732,M,3.3,0015*70"""
1477388581279695843,,193155,,1477388581,279148186,'',"""\n$GPHDT,123.695,T*3F"""
1477388581327480984,,193156,,1477388581,326940500,'',"""\n$GPGGA,094322.30,5603.97445213,N,00823.34211622,E,4,14,0.8,22.392,M,40.732,M,3.3,0015*78"""
1477388581329061840,,193157,,1477388581,328591146,'',"""\n$GPHDT,123.284,T*3B"""
1477388581387173386,,193158,,1477388581,385402290,'',"""\n$GPGGA,094322.35,5603.97440382,N,00823.34207674,E,4,14,0.8,22.391,M,40.732,M,3.3,0015*76"""
1477388581389259370,,193159,,1477388581,388854089,'',"""\n$GPHDT,123.621,T*30"""
1477388581435871115,,193160,,1477388581,433733437,'',"""\n$GPGGA,094322.40,5603.97434737,N,00823.34204189,E,4,14,0.8,22.400,M,40.732,M,3.4,0015*73"""
1477388581437446534,,193161,,1477388581,436004159,'',"""\n$GPHDT,122.667,T*33"""
1477388581478157643,,193162,,1477388581,477800657,'',"""\n$GPGGA,094322.45,5603.97429467,N,00823.34200014,E,4,15,0.7,22.408,M,40.732,M,1.5,0015*78"""
1477388581480769004,,193163,,1477388581,479503699,'',"""\n$GPHDT,122.380,T*3F"""
1477388581527339748,,193164,,1477388581,527201487,'',"""\n$GPGGA,094322.50,5603.97423715,N,00823.34194803,E,4,15,0.7,22.416,M,40.732,M,1.5,0015*7F"""
1477388581529971533,,193165,,1477388581,528897241,'',"""\n$GPHDT,123.573,T*34"""
1477388581577459112,,193166,,1477388581,577230408,'',"""\n$GPGGA,094322.55,5603.97418596,N,00823.34188032,E,4,15,0.7,22.424,M,40.732,M,1.5,0015*7D"""
1477388581579290078,,193167,,1477388581,578915679,'',"""\n$GPHDT,124.706,T*33"""
1477388581633353193,,193168,,1477388581,633216171,'',"""\n$GPGGA,094322.60,5603.97413944,N,00823.34183820,E,4,15,0.7,22.435,M,40.732,M,1.6,0015*70"""
1477388581635750139,,193169,,1477388581,635410238,'',"""\n$GPHDT,123.650,T*36"""
1477388581678217988,,193170,,1477388581,677973719,'',"""\n$GPGGA,094322.65,5603.97408413,N,00823.34180053,E,4,15,0.7,22.421,M,40.732,M,1.6,0015*7A"""
1477388581684222387,,193171,,1477388581,683917615,'',"""\n$GPHDT,123.578,T*3F"""
1477388581727482587,,193172,,1477388581,727208662,'',"""\n$GPGGA,094322.70,5603.97403382,N,00823.34175270,E,4,15,0.7,22.439,M,40.732,M,1.7,0015*7B"""
1477388581729061010,,193173,,1477388581,728878335,'',"""\n$GPHDT,124.214,T*35"""
1477388581777994177,,193174,,1477388581,777286799,'',"""\n$GPGGA,094322.75,5603.97397376,N,00823.34170711,E,4,15,0.7,22.450,M,40.732,M,1.8,0015*78"""
1477388581779113035,,193175,,1477388581,778963223,'',"""\n$GPHDT,124.678,T*3B"""
1477388581834452625,,193176,,1477388581,834093514,'',"""\n$GPGGA,094322.80,5603.97392185,N,00823.34165695,E,4,15,0.7,22.458,M,40.732,M,1.8,0015*78"""
1477388581836222125,,193177,,1477388581,835385839,'',"""\n$GPHDT,124.256,T*33"""
1477388581877638191,,193178,,1477388581,877345920,'',"""\n$GPGGA,094322.85,5603.97386208,N,00823.34160968,E,4,15,0.7,22.465,M,40.732,M,1.9,0015*79"""
1477388581884565289,,193179,,1477388581,883900689,'',"""\n$GPHDT,123.945,T*3D"""
1477388581927755292,,193180,,1477388581,927344385,'',"""\n$GPGGA,094322.90,5603.97379920,N,00823.34156807,E,4,15,0.7,22.461,M,40.732,M,1.9,0015*75"""
1477388581929207194,,193181,,1477388581,928898441,'',"""\n$GPHDT,124.309,T*38"""
1477388581980035234,,193182,,1477388581,979036150,'',"""\n$GPGGA,094322.95,5603.97373219,N,00823.34150770,E,4,15,0.7,22.479,M,40.732,M,2.0,0015*71"""
1477388581981422270,,193183,,1477388581,979203721,'',"""\n$GPHDT,124.619,T*3C"""
1477388582045756283,,193184,,1477388582,45192388,'',"""\n$GPGGA,094323.00,5603.97368298,N,00823.34144473,E,4,15,0.7,22.484,M,40.732,M,2.0,0015*78"""
1477388582048401603,,193185,,1477388582,47999518,'',"""\n$GPHDT,124.720,T*37"""
1477388582078299784,,193186,,1477388582,77288399,'',"""\n$GPGGA,094323.05,5603.97362994,N,00823.34139119,E,4,15,0.7,22.492,M,40.732,M,2.0,0015*74"""
1477388582079263103,,193187,,1477388582,78922882,'',"""\n$GPHDT,125.500,T*36"""
1477388582130266696,,193188,,1477388582,128394231,'',"""\n$GPGGA,094323.10,5603.97357101,N,00823.34135272,E,4,15,0.7,22.492,M,40.732,M,2.1,0015*71"""
1477388582130449282,,193189,,1477388582,130155729,'',"""\n$GPHDT,125.729,T*3F"""
1477388582179172934,,193190,,1477388582,177548674,'',"""\n$GPGGA,094323.15,5603.97352193,N,00823.34130312,E,4,15,0.7,22.479,M,40.732,M,2.2,0015*7E"""
1477388582179787308,,193191,,1477388582,179343296,'',"""\n$GPHDT,124.386,T*3F"""
1477388582234525019,,193192,,1477388582,234332490,'',"""\n$GPGGA,094323.20,5603.97346550,N,00823.34125212,E,4,15,0.7,22.481,M,40.732,M,2.2,0015*74"""
1477388582236649804,,193193,,1477388582,236367691,'',"""\n$GPHDT,124.081,T*3B"""
1477388582278604026,,193194,,1477388582,277313684,'',"""\n$GPGGA,094323.25,5603.97341110,N,00823.34119611,E,4,15,0.7,22.494,M,40.732,M,2.3,0015*7B"""
1477388582279610215,,193195,,1477388582,279399829,'',"""\n$GPHDT,125.071,T*35"""
1477388582327523527,,193196,,1477388582,327373413,'',"""\n$GPGGA,094323.30,5603.97335620,N,00823.34114062,E,4,15,0.7,22.502,M,40.732,M,2.3,0015*79"""
1477388582329149745,,193197,,1477388582,329045414,'',"""\n$GPHDT,126.578,T*3A"""
1477388582377614466,,193198,,1477388582,377393079,'',"""\n$GPGGA,094323.35,5603.97330854,N,00823.34110701,E,4,15,0.7,22.502,M,40.732,M,2.3,0015*72"""
1477388582379281443,,193199,,1477388582,379058743,'',"""\n$GPHDT,125.874,T*38"""
1477388582435428860,,193200,,1477388582,435094941,'',"""\n$GPGGA,094323.40,5603.97326712,N,00823.34107434,E,4,15,0.7,22.517,M,40.732,M,1.4,0015*79"""
1477388582437435508,,193201,,1477388582,436975932,'',"""\n$GPHDT,124.060,T*34"""
1477388582478469830,,193202,,1477388582,477297090,'',"""\n$GPGGA,094323.45,5603.97321627,N,00823.34100609,E,4,15,0.7,22.513,M,40.732,M,1.5,0015*72"""
1477388582479569446,,193203,,1477388582,478852822,'',"""\n$GPHDT,124.619,T*3C"""
1477388582527209775,,193204,,1477388582,527064689,'',"""\n$GPGGA,094323.50,5603.97316166,N,00823.34093042,E,4,15,0.7,22.518,M,40.732,M,1.5,0015*79"""
1477388582528800847,,193205,,1477388582,528713903,'',"""\n$GPHDT,126.721,T*34"""
1477388582579433098,,193206,,1477388582,578816131,'',"""\n$GPGGA,094323.55,5603.97308322,N,00823.34087325,E,4,15,0.7,22.530,M,40.732,M,1.5,0015*7C"""
1477388582580874154,,193207,,1477388582,580513332,'',"""\n$GPHDT,127.214,T*36"""
1477388582638223835,,193208,,1477388582,634768961,'',"""\n$GPGGA,094323.60,5603.97302951,N,00823.34082793,E,4,15,0.7,22.530,M,40.732,M,1.6,0015*71"""
1477388582638231607,,193209,,1477388582,636428807,'',"""\n$GPHDT,123.049,T*38"""
1477388582681596578,,193210,,1477388582,677754848,'',"""\n$GPGGA,094323.65,5603.97296523,N,00823.34075650,E,4,15,0.7,22.520,M,40.732,M,1.6,0015*76"""
1477388582681615430,,193211,,1477388582,678961951,'',"""\n$GPHDT,122.866,T*3C"""
1477388582727306446,,193212,,1477388582,726805982,'',"""\n$GPGGA,094323.70,5603.97290280,N,00823.34066099,E,4,15,0.7,22.549,M,40.732,M,1.7,0015*75"""
1477388582729027307,,193213,,1477388582,728482885,'',"""\n$GPHDT,124.645,T*35"""
1477388582776617819,,193214,,1477388582,776386038,'',"""\n$GPGGA,094323.75,5603.97284295,N,00823.34057390,E,4,15,0.7,22.554,M,40.732,M,1.8,0015*7A"""
1477388582778378315,,193215,,1477388582,778078340,'',"""\n$GPHDT,125.965,T*39"""
1477388582835178344,,193216,,1477388582,834761734,'',"""\n$GPGGA,094323.80,5603.97277923,N,00823.34052488,E,4,15,0.7,22.554,M,40.732,M,1.8,0015*71"""
1477388582837008034,,193217,,1477388582,836483459,'',"""\n$GPHDT,125.144,T*32"""
1477388582878068704,,193218,,1477388582,877611603,'',"""\n$GPGGA,094323.85,5603.97272666,N,00823.34049021,E,4,15,0.7,22.543,M,40.732,M,1.9,0015*75"""
1477388582880599183,,193219,,1477388582,879901576,'',"""\n$GPHDT,122.560,T*37"""
1477388582927182359,,193220,,1477388582,926906886,'',"""\n$GPGGA,094323.90,5603.97267401,N,00823.34044094,E,4,15,0.7,22.558,M,40.732,M,1.9,0015*7F"""
1477388582929018705,,193221,,1477388582,928684215,'',"""\n$GPHDT,123.251,T*33"""
1477388582982314309,,193222,,1477388582,977241252,'',"""\n$GPGGA,094323.95,5603.97262159,N,00823.34039073,E,4,15,0.7,22.573,M,40.732,M,2.0,0015*77"""
1477388582982331844,,193223,,1477388582,978825559,'',"""\n$GPHDT,125.062,T*37"""
1477388583048084483,,193224,,1477388583,45802468,'',"""\n$GPGGA,094324.00,5603.97257164,N,00823.34033471,E,4,15,0.7,22.580,M,40.732,M,2.0,0015*74"""
1477388583048092940,,193225,,1477388583,47939607,'',"""\n$GPHDT,125.682,T*3F"""
1477388583076963850,,193226,,1477388583,76308736,'',"""\n$GPGGA,094324.05,5603.97252992,N,00823.34028081,E,4,15,0.7,22.591,M,40.732,M,2.0,0015*74"""
1477388583091891404,,193227,,1477388583,80355027,'',"""\n$GPHDT,124.593,T*3D"""
1477388583127625503,,193228,,1477388583,127273944,'',"""\n$GPGGA,094324.10,5603.97247921,N,00823.34022936,E,4,15,0.7,22.599,M,40.732,M,2.1,0015*7A"""
1477388583128911352,,193229,,1477388583,128796450,'',"""\n$GPHDT,123.814,T*38"""
1477388583182967348,,193230,,1477388583,178156776,'',"""\n$GPGGA,094324.15,5603.97242832,N,00823.34017841,E,4,15,0.7,22.581,M,40.732,M,2.2,0015*74"""
1477388583182978677,,193231,,1477388583,180357169,'',"""\n$GPHDT,125.153,T*34"""
1477388583234915550,,193232,,1477388583,234721487,'',"""\n$GPGGA,094324.20,5603.97235643,N,00823.34012769,E,4,15,0.7,22.605,M,40.732,M,2.2,0015*75"""
1477388583236519234,,193233,,1477388583,236375901,'',"""\n$GPHDT,124.419,T*3E"""
1477388583279160194,,193234,,1477388583,278014693,'',"""\n$GPGGA,094324.25,5603.97229322,N,00823.34007158,E,4,15,0.7,22.596,M,40.732,M,2.3,0015*77"""
1477388583281769981,,193235,,1477388583,281314887,'',"""\n$GPHDT,124.768,T*3B"""
1477388583327882161,,193236,,1477388583,326267486,'',"""\n$GPGGA,094324.30,5603.97222774,N,00823.33999790,E,4,15,0.7,22.602,M,40.732,M,2.3,0015*7A"""
1477388583331298634,,193237,,1477388583,328324969,'',"""\n$GPHDT,124.203,T*33"""
1477388583376985172,,193238,,1477388583,376834479,'',"""\n$GPGGA,094324.35,5603.97216274,N,00823.33992442,E,4,15,0.7,22.611,M,40.732,M,1.4,0015*7C"""
1477388583378072202,,193239,,1477388583,377978048,'',"""\n$GPHDT,124.375,T*33"""
1477388583453566489,,193240,,1477388583,435937787,'',"""\n$GPGGA,094324.40,5603.97209607,N,00823.33987017,E,4,15,0.7,22.611,M,40.732,M,1.4,0015*70"""
1477388583453611832,,193241,,1477388583,436195901,'',"""\n$GPHDT,125.769,T*3B"""
1477388583479378544,,193242,,1477388583,477704493,'',"""\n$GPGGA,094324.45,5603.97204375,N,00823.33980846,E,4,15,0.7,22.622,M,40.732,M,1.5,0015*72"""
1477388583479865226,,193243,,1477388583,479509986,'',"""\n$GPHDT,123.979,T*32"""
1477388583527494819,,193244,,1477388583,527254810,'',"""\n$GPGGA,094324.50,5603.97199679,N,00823.33974036,E,4,15,0.7,22.627,M,40.732,M,1.5,0015*79"""
1477388583529631966,,193245,,1477388583,529481530,'',"""\n$GPHDT,123.425,T*36"""
1477388583584601018,,193246,,1477388583,577462869,'',"""\n$GPGGA,094324.55,5603.97194734,N,00823.33968936,E,4,15,0.7,22.613,M,40.732,M,1.5,0015*7A"""
1477388583584623499,,193247,,1477388583,579121489,'',"""\n$GPHDT,124.143,T*34"""
1477388583639399265,,193248,,1477388583,635816301,'',"""\n$GPGGA,094324.60,5603.97187397,N,00823.33965243,E,4,15,0.7,22.638,M,40.732,M,1.6,0015*7D"""
1477388583639438707,,193249,,1477388583,636566870,'',"""\n$GPHDT,126.171,T*37"""
1477388583679737384,,193250,,1477388583,677599801,'',"""\n$GPGGA,094324.65,5603.97181669,N,00823.33961539,E,4,15,0.7,22.655,M,40.732,M,1.6,0015*7F"""
1477388583679951793,,193251,,1477388583,679342386,'',"""\n$GPHDT,124.220,T*32"""
1477388583726621966,,193252,,1477388583,726463118,'',"""\n$GPGGA,094324.70,5603.97176273,N,00823.33958134,E,4,15,0.7,22.658,M,40.732,M,1.7,0015*73"""
1477388583728145602,,193253,,1477388583,728065790,'',"""\n$GPHDT,122.567,T*30"""
1477388583800844436,,193254,,1477388583,777665839,'',"""\n$GPGGA,094324.75,5603.97172410,N,00823.33951312,E,4,15,0.7,22.650,M,40.732,M,1.8,0015*79"""
1477388583800849345,,193255,,1477388583,779310441,'',"""\n$GPHDT,124.042,T*34"""
1477388583834716189,,193256,,1477388583,833802080,'',"""\n$GPGGA,094324.80,5603.97167671,N,00823.33943252,E,4,15,0.7,22.670,M,40.732,M,1.8,0015*76"""
1477388583836029229,,193257,,1477388583,835572364,'',"""\n$GPHDT,126.017,T*36"""
1477388583878704155,,193258,,1477388583,877815172,'',"""\n$GPGGA,094324.85,5603.97161538,N,00823.33938055,E,4,15,0.7,22.674,M,40.732,M,1.9,0015*77"""
1477388583880916505,,193259,,1477388583,880750178,'',"""\n$GPHDT,126.618,T*3F"""
1477388583928365165,,193260,,1477388583,928181100,'',"""\n$GPGGA,094324.90,5603.97154851,N,00823.33935445,E,4,15,0.7,22.675,M,40.732,M,1.9,0015*7E"""
1477388583930013789,,193261,,1477388583,929828213,'',"""\n$GPHDT,124.401,T*37"""
1477388583991081577,,193262,,1477388583,978524155,'',"""\n$GPGGA,094324.95,5603.97148962,N,00823.33930863,E,4,15,0.7,22.668,M,40.732,M,2.0,0015*7C"""
1477388583991114429,,193263,,1477388583,979759831,'',"""\n$GPHDT,122.541,T*34"""
1477388584045263324,,193264,,1477388584,44930665,'',"""\n$GPGGA,094325.00,5603.97142407,N,00823.33924123,E,4,15,0.7,22.687,M,40.732,M,2.0,0015*7C"""
1477388584046740608,,193265,,1477388584,46059644,'',"""\n$GPHDT,124.046,T*30"""
1477388584076504391,,193266,,1477388584,76379916,'',"""\n$GPGGA,094325.05,5603.97136252,N,00823.33915858,E,4,15,0.7,22.688,M,40.732,M,2.0,0015*74"""
1477388584078124432,,193267,,1477388584,77999122,'',"""\n$GPHDT,126.212,T*31"""
1477388584127905713,,193268,,1477388584,127793139,'',"""\n$GPGGA,094325.10,5603.97130432,N,00823.33909777,E,4,15,0.7,22.672,M,40.732,M,2.1,0015*7D"""
1477388584129554031,,193269,,1477388584,129409089,'',"""\n$GPHDT,126.068,T*3E"""
1477388584178064187,,193270,,1477388584,177901429,'',"""\n$GPGGA,094325.15,5603.97123231,N,00823.33904400,E,4,15,0.7,22.687,M,40.732,M,2.2,0015*78"""
1477388584179696333,,193271,,1477388584,179572122,'',"""\n$GPHDT,122.988,T*3D"""
1477388584235785055,,193272,,1477388584,234535319,'',"""\n$GPGGA,094325.20,5603.97117466,N,00823.33900130,E,4,15,0.7,22.675,M,40.732,M,2.2,0015*72"""
1477388584237031377,,193273,,1477388584,236112290,'',"""\n$GPHDT,123.299,T*37"""
1477388584278528350,,193274,,1477388584,278154603,'',"""\n$GPGGA,094325.25,5603.97112561,N,00823.33896185,E,4,15,0.7,22.696,M,40.732,M,2.3,0015*78"""
1477388584283399988,,193275,,1477388584,280575590,'',"""\n$GPHDT,124.728,T*3F"""
1477388584335208118,,193276,,1477388584,328701621,'',"""\n$GPGGA,094325.30,5603.97108242,N,00823.33889333,E,4,15,0.7,22.708,M,40.732,M,2.3,0015*76"""
1477388584335235796,,193277,,1477388584,330297826,'',"""\n$GPHDT,126.154,T*30"""
1477388584387085338,,193278,,1477388584,383878642,'',"""\n$GPGGA,094325.35,5603.97103790,N,00823.33884542,E,4,15,0.7,22.721,M,40.732,M,2.3,0015*74"""
1477388584387136093,,193279,,1477388584,384136738,'',"""\n$GPHDT,125.572,T*33"""
1477388584436318874,,193280,,1477388584,435537824,'',"""\n$GPGGA,094325.40,5603.97097591,N,00823.33881142,E,4,15,0.7,22.729,M,40.732,M,1.4,0015*74"""
1477388584437118684,,193281,,1477388584,436731727,'',"""\n$GPHDT,124.710,T*34"""
1477388584480009631,,193282,,1477388584,478215358,'',"""\n$GPGGA,094325.45,5603.97091759,N,00823.33878735,E,4,15,0.7,22.742,M,40.732,M,1.5,0015*7D"""
1477388584480318251,,193283,,1477388584,479915455,'',"""\n$GPHDT,124.033,T*32"""
1477388584527577980,,193284,,1477388584,527481979,'',"""\n$GPGGA,094325.50,5603.97087026,N,00823.33874661,E,4,15,0.7,22.715,M,40.732,M,1.5,0015*7F"""
1477388584529567343,,193285,,1477388584,529357204,'',"""\n$GPHDT,124.841,T*3F"""
1477388584579635647,,193286,,1477388584,577377721,'',"""\n$GPGGA,094325.55,5603.97082185,N,00823.33866626,E,4,15,0.7,22.725,M,40.732,M,1.5,0015*74"""
1477388584579643169,,193287,,1477388584,579046456,'',"""\n$GPHDT,125.567,T*37"""
1477388584634877952,,193288,,1477388584,634732056,'',"""\n$GPGGA,094325.60,5603.97077074,N,00823.33858715,E,4,15,0.7,22.747,M,40.732,M,1.6,0015*7C"""
1477388584636587561,,193289,,1477388584,636304876,'',"""\n$GPHDT,126.026,T*34"""
1477388584679560515,,193290,,1477388584,678839783,'',"""\n$GPGGA,094325.65,5603.97069667,N,00823.33852834,E,4,15,0.7,22.743,M,40.732,M,1.6,0015*70"""
1477388584680724415,,193291,,1477388584,680470116,'',"""\n$GPHDT,126.412,T*37"""
1477388584728740885,,193292,,1477388584,728321008,'',"""\n$GPGGA,094325.70,5603.97063455,N,00823.33850632,E,4,15,0.7,22.746,M,40.732,M,1.7,0015*73"""
1477388584730170408,,193293,,1477388584,729991181,'',"""\n$GPHDT,123.700,T*32"""
1477388584778783893,,193294,,1477388584,777961538,'',"""\n$GPGGA,094325.75,5603.97057542,N,00823.33845769,E,4,15,0.7,22.751,M,40.732,M,1.8,0015*74"""
1477388584780515212,,193295,,1477388584,779612947,'',"""\n$GPHDT,123.440,T*35"""
1477388584840337064,,193296,,1477388584,834612913,'',"""\n$GPGGA,094325.80,5603.97051784,N,00823.33839321,E,4,15,0.7,22.771,M,40.732,M,1.8,0015*71"""
1477388584840470988,,193297,,1477388584,836812193,'',"""\n$GPHDT,125.053,T*35"""
1477388584878408730,,193298,,1477388584,877466351,'',"""\n$GPGGA,094325.85,5603.97045439,N,00823.33832043,E,4,15,0.7,22.767,M,40.732,M,1.9,0015*7E"""
1477388584879894674,,193299,,1477388584,879100188,'',"""\n$GPHDT,126.227,T*37"""
1477388584928084216,,193300,,1477388584,927817633,'',"""\n$GPGGA,094325.90,5603.97039460,N,00823.33826051,E,4,15,0.7,22.761,M,40.732,M,1.9,0015*7D"""
1477388584929570083,,193301,,1477388584,929448984,'',"""\n$GPHDT,126.525,T*32"""
1477388584977023892,,193302,,1477388584,976857719,'',"""\n$GPGGA,094325.95,5603.97034486,N,00823.33821983,E,4,15,0.7,22.764,M,40.732,M,2.0,0015*73"""
1477388584979257624,,193303,,1477388584,979139639,'',"""\n$GPHDT,124.185,T*3E"""
1477388585046587105,,193304,,1477388585,45838847,'',"""\n$GPGGA,094326.00,5603.97028859,N,00823.33817798,E,4,15,0.7,22.769,M,40.732,M,2.0,0015*73"""
1477388585048682992,,193305,,1477388585,47139850,'',"""\n$GPHDT,123.734,T*35"""
1477388585080185336,,193306,,1477388585,77899814,'',"""\n$GPGGA,094326.05,5603.97023366,N,00823.33811980,E,4,15,0.7,22.771,M,40.732,M,2.0,0015*72"""
1477388585083138674,,193307,,1477388585,82809645,'',"""\n$GPHDT,124.798,T*34"""
1477388585129284411,,193308,,1477388585,127934383,'',"""\n$GPGGA,094326.10,5603.97018685,N,00823.33804225,E,4,15,0.7,22.778,M,40.732,M,2.1,0015*7E"""
1477388585129724251,,193309,,1477388585,129478942,'',"""\n$GPHDT,125.452,T*30"""
1477388585180968777,,193310,,1477388585,177623952,'',"""\n$GPGGA,094326.15,5603.97014180,N,00823.33797704,E,4,15,0.7,22.781,M,40.732,M,2.2,0015*73"""
1477388585183418551,,193311,,1477388585,181368239,'',"""\n$GPHDT,125.823,T*3A"""
1477388585234552794,,193312,,1477388585,234441658,'',"""\n$GPGGA,094326.20,5603.97007019,N,00823.33794609,E,4,15,0.7,22.798,M,40.732,M,2.2,0015*71"""
1477388585236212144,,193313,,1477388585,236127710,'',"""\n$GPHDT,125.040,T*37"""
1477388585277707379,,193314,,1477388585,277345109,'',"""\n$GPGGA,094326.25,5603.97001208,N,00823.33790833,E,4,15,0.7,22.799,M,40.732,M,2.3,0015*73"""
1477388585281618112,,193315,,1477388585,279361915,'',"""\n$GPHDT,124.917,T*3D"""
1477388585327537233,,193316,,1477388585,326659206,'',"""\n$GPGGA,094326.30,5603.96995057,N,00823.33782795,E,4,15,0.7,22.815,M,40.732,M,2.3,0015*71"""
1477388585329928570,,193317,,1477388585,329173421,'',"""\n$GPHDT,124.507,T*30"""
1477388585381187585,,193318,,1477388585,378201627,'',"""\n$GPGGA,094326.35,5603.96990158,N,00823.33774703,E,4,15,0.7,22.811,M,40.732,M,2.3,0015*7D"""
1477388585381199750,,193319,,1477388585,379799744,'',"""\n$GPHDT,125.028,T*39"""
1477388585434807251,,193320,,1477388585,434540284,'',"""\n$GPGGA,094326.40,5603.96983741,N,00823.33766910,E,4,15,0.7,22.803,M,40.732,M,2.4,0015*78"""
1477388585436612949,,193321,,1477388585,436271476,'',"""\n$GPHDT,125.934,T*3D"""
1477388585478186706,,193322,,1477388585,477763835,'',"""\n$GPGGA,094326.45,5603.96977051,N,00823.33761225,E,4,15,0.7,22.808,M,40.732,M,2.5,0015*70"""
1477388585480052846,,193323,,1477388585,479497882,'',"""\n$GPHDT,125.525,T*31"""
1477388585532003179,,193324,,1477388585,527908530,'',"""\n$GPGGA,094326.50,5603.96970961,N,00823.33757800,E,4,15,0.7,22.813,M,40.732,M,2.5,0015*7B"""
1477388585532074856,,193325,,1477388585,529549712,'',"""\n$GPHDT,123.180,T*3C"""
1477388585581358403,,193326,,1477388585,578285821,'',"""\n$GPGGA,094326.55,5603.96964667,N,00823.33752377,E,4,15,0.7,22.799,M,40.732,M,1.5,0015*72"""
1477388585581365155,,193327,,1477388585,580078157,'',"""\n$GPHDT,122.834,T*3B"""
1477388585636229674,,193328,,1477388585,636064898,'',"""\n$GPGGA,094326.60,5603.96959496,N,00823.33742586,E,4,15,0.7,22.823,M,40.732,M,1.6,0015*72"""
1477388585636948204,,193329,,1477388585,636765773,'',"""\n$GPHDT,124.651,T*30"""
1477388585677876430,,193330,,1477388585,677471568,'',"""\n$GPGGA,094326.65,5603.96954747,N,00823.33736581,E,4,15,0.7,22.815,M,40.732,M,1.6,0015*74"""
1477388585679483976,,193331,,1477388585,679124569,'',"""\n$GPHDT,126.003,T*33"""
1477388585734854583,,193332,,1477388585,731839142,'',"""\n$GPGGA,094326.70,5603.96948419,N,00823.33732116,E,4,15,0.7,22.812,M,40.732,M,1.7,0015*7D"""
1477388585734886926,,193333,,1477388585,732073412,'',"""\n$GPHDT,125.192,T*39"""
1477388585782284474,,193334,,1477388585,777644801,'',"""\n$GPGGA,094326.75,5603.96942277,N,00823.33729534,E,4,15,0.7,22.823,M,40.732,M,1.8,0015*7F"""
1477388585782295246,,193335,,1477388585,779348603,'',"""\n$GPHDT,123.267,T*36"""
1477388585852699895,,193336,,1477388585,837570502,'',"""\n$GPGGA,094326.80,5603.96937027,N,00823.33724317,E,4,15,0.7,22.835,M,40.732,M,1.8,0015*7D"""
1477388585852706308,,193337,,1477388585,837782448,'',"""\n$GPHDT,122.352,T*30"""
1477388585877655843,,193338,,1477388585,877418690,'',"""\n$GPGGA,094326.85,5603.96931811,N,00823.33716780,E,4,15,0.7,22.842,M,40.732,M,1.9,0015*79"""
1477388585880647355,,193339,,1477388585,879078492,'',"""\n$GPHDT,124.986,T*35"""
1477388585927958453,,193340,,1477388585,927503490,'',"""\n$GPGGA,094326.90,5603.96926444,N,00823.33710217,E,4,15,0.7,22.856,M,40.732,M,1.9,0015*7F"""
1477388585930906243,,193341,,1477388585,929710208,'',"""\n$GPHDT,126.930,T*3A"""
1477388585977932798,,193342,,1477388585,977627486,'',"""\n$GPGGA,094326.95,5603.96921198,N,00823.33707567,E,4,15,0.7,22.860,M,40.732,M,2.0,0015*70"""
1477388585979693905,,193343,,1477388585,979297617,'',"""\n$GPHDT,127.105,T*35"""
1477388586046040717,,193344,,1477388586,45678697,'',"""\n$GPGGA,094327.00,5603.96917268,N,00823.33704234,E,4,15,0.7,22.861,M,40.732,M,2.0,0015*77"""
1477388586056343048,,193345,,1477388586,47149572,'',"""\n$GPHDT,122.512,T*32"""
1477388586078927123,,193346,,1477388586,78484699,'',"""\n$GPGGA,094327.05,5603.96911671,N,00823.33699744,E,4,15,0.7,22.851,M,40.732,M,2.0,0015*7C"""
1477388586080092764,,193347,,1477388586,79897246,'',"""\n$GPHDT,122.246,T*34"""
1477388586129704651,,193348,,1477388586,127273565,'',"""\n$GPGGA,094327.10,5603.96904411,N,00823.33692464,E,4,15,0.7,22.849,M,40.732,M,2.1,0015*7A"""
1477388586129711029,,193349,,1477388586,129398069,'',"""\n$GPHDT,125.715,T*30"""
1477388586205976588,,193350,,1477388586,178097050,'',"""\n$GPGGA,094327.15,5603.96898001,N,00823.33685335,E,4,15,0.7,22.882,M,40.732,M,2.2,0015*7F"""
1477388586205984610,,193351,,1477388586,179852559,'',"""\n$GPHDT,127.469,T*3A"""
1477388586242016893,,193352,,1477388586,234981177,'',"""\n$GPGGA,094327.20,5603.96892409,N,00823.33680818,E,4,15,0.7,22.880,M,40.732,M,2.2,0015*7C"""
1477388586242047201,,193353,,1477388586,236364057,'',"""\n$GPHDT,124.940,T*3F"""
1477388586290273845,,193354,,1477388586,279874173,'',"""\n$GPGGA,094327.25,5603.96886522,N,00823.33677380,E,4,15,0.7,22.873,M,40.732,M,2.3,0015*7B"""
1477388586294650645,,193355,,1477388586,279956993,'',"""\n$GPHDT,122.895,T*30"""
1477388586327853035,,193356,,1477388586,327457031,'',"""\n$GPGGA,094327.30,5603.96880169,N,00823.33672279,E,4,15,0.7,22.893,M,40.732,M,2.3,0015*7E"""
1477388586329342922,,193357,,1477388586,329143728,'',"""\n$GPHDT,124.647,T*37"""
1477388586379983479,,193358,,1477388586,378492972,'',"""\n$GPGGA,094327.35,5603.96875932,N,00823.33666542,E,4,15,0.7,22.918,M,40.732,M,2.3,0015*7F"""
1477388586380564817,,193359,,1477388586,380317560,'',"""\n$GPHDT,125.714,T*31"""
1477388586440377023,,193360,,1477388586,435096784,'',"""\n$GPGGA,094327.40,5603.96871409,N,00823.33659313,E,4,15,0.7,22.894,M,40.732,M,2.4,0015*70"""
1477388586440385514,,193361,,1477388586,436086384,'',"""\n$GPHDT,125.829,T*30"""
1477388586478007505,,193362,,1477388586,477840106,'',"""\n$GPGGA,094327.45,5603.96865123,N,00823.33654133,E,4,15,0.7,22.895,M,40.732,M,2.5,0015*70"""
1477388586479700137,,193363,,1477388586,479533071,'',"""\n$GPHDT,125.155,T*32"""
1477388586528671984,,193364,,1477388586,528081355,'',"""\n$GPGGA,094327.50,5603.96860022,N,00823.33652632,E,4,15,0.7,22.876,M,40.732,M,2.5,0015*7C"""
1477388586529853281,,193365,,1477388586,529755412,'',"""\n$GPHDT,123.540,T*34"""
1477388586578082203,,193366,,1477388586,577800551,'',"""\n$GPGGA,094327.55,5603.96852573,N,00823.33647294,E,4,15,0.7,22.897,M,40.732,M,2.5,0015*7A"""
1477388586579687587,,193367,,1477388586,579508415,'',"""\n$GPHDT,123.846,T*3F"""
1477388586635903849,,193368,,1477388586,635766688,'',"""\n$GPGGA,094327.60,5603.96847340,N,00823.33640336,E,4,15,0.7,22.929,M,40.732,M,2.6,0015*77"""
1477388586635915103,,193369,,1477388586,635786777,'',"""\n$GPHDT,124.242,T*36"""
1477388586679909235,,193370,,1477388586,678356886,'',"""\n$GPGGA,094327.65,5603.96842960,N,00823.33630930,E,4,15,0.7,22.934,M,40.732,M,2.7,0015*79"""
1477388586680793777,,193371,,1477388586,679973922,'',"""\n$GPHDT,125.761,T*33"""
1477388586727047406,,193372,,1477388586,726676589,'',"""\n$GPGGA,094327.70,5603.96837741,N,00823.33625385,E,4,15,0.7,22.936,M,40.732,M,2.7,0015*70"""
1477388586729231310,,193373,,1477388586,728952531,'',"""\n$GPHDT,125.761,T*33"""
1477388586779928429,,193374,,1477388586,778598671,'',"""\n$GPGGA,094327.75,5603.96830247,N,00823.33624115,E,4,15,0.7,22.932,M,40.732,M,2.8,0015*70"""
1477388586781097144,,193375,,1477388586,780709166,'',"""\n$GPHDT,124.079,T*3C"""
1477388586834899745,,193376,,1477388586,834142296,'',"""\n$GPGGA,094327.80,5603.96825128,N,00823.33621713,E,4,15,0.7,22.935,M,40.732,M,2.8,0015*76"""
1477388586836767070,,193377,,1477388586,835760109,'',"""\n$GPHDT,122.498,T*31"""
1477388586889204723,,193378,,1477388586,887806644,'',"""\n$GPGGA,094327.85,5603.96818753,N,00823.33614020,E,4,15,0.7,22.960,M,40.732,M,2.8,0015*76"""
1477388586893127094,,193379,,1477388586,892271896,'',"""\n$GPHDT,123.171,T*32"""
1477388586928449815,,193380,,1477388586,928118595,'',"""\n$GPGGA,094327.90,5603.96812770,N,00823.33605660,E,4,15,0.7,22.960,M,40.732,M,2.9,0015*7A"""
1477388586930002357,,193381,,1477388586,929777372,'',"""\n$GPHDT,126.105,T*34"""
1477388587001742977,,193382,,1477388586,983823093,'',"""\n$GPGGA,094327.95,5603.96807583,N,00823.33596842,E,4,15,0.7,22.953,M,40.732,M,3.0,0015*7A"""
1477388587001784035,,193383,,1477388586,984048509,'',"""\n$GPHDT,126.656,T*35"""
1477388587056060424,,193384,,1477388587,51832533,'',"""\n$GPGGA,094328.00,5603.96802575,N,00823.33590259,E,4,15,0.7,22.960,M,40.732,M,2.0,0015*72"""
1477388587056180011,,193385,,1477388587,51913651,'',"""\n$GPHDT,123.795,T*3E"""
1477388587084439704,,193386,,1477388587,83651153,'',"""\n$GPGGA,094328.05,5603.96795418,N,00823.33587040,E,4,15,0.7,22.962,M,40.732,M,2.0,0015*72"""
1477388587084446835,,193387,,1477388587,84118562,'',"""\n$GPHDT,122.486,T*3E"""
1477388587132107821,,193388,,1477388587,127417391,'',"""\n$GPGGA,094328.10,5603.96789728,N,00823.33581878,E,4,15,0.7,22.994,M,40.732,M,2.1,0015*76"""
1477388587132181106,,193389,,1477388587,132027911,'',"""\n$GPHDT,123.751,T*36"""
1477388587178499533,,193390,,1477388587,177690017,'',"""\n$GPGGA,094328.15,5603.96783854,N,00823.33576323,E,4,15,0.7,22.979,M,40.732,M,2.2,0015*70"""
1477388587183442312,,193391,,1477388587,179940815,'',"""\n$GPHDT,125.168,T*3C"""
1477388587234676703,,193392,,1477388587,234449822,'',"""\n$GPGGA,094328.20,5603.96779173,N,00823.33570295,E,4,15,0.7,22.987,M,40.732,M,2.2,0015*74"""
1477388587237162283,,193393,,1477388587,236691921,'',"""\n$GPHDT,125.797,T*3A"""
1477388587277775946,,193394,,1477388587,277661194,'',"""\n$GPGGA,094328.25,5603.96774718,N,00823.33565566,E,4,15,0.7,22.990,M,40.732,M,2.3,0015*7F"""
1477388587279430821,,193395,,1477388587,279332924,'',"""\n$GPHDT,125.202,T*33"""
1477388587328315687,,193396,,1477388587,327524804,'',"""\n$GPGGA,094328.30,5603.96770022,N,00823.33560061,E,4,15,0.7,22.998,M,40.732,M,2.3,0015*7E"""
1477388587331954591,,193397,,1477388587,329085883,'',"""\n$GPHDT,124.201,T*31"""
1477388587378984700,,193398,,1477388587,378044728,'',"""\n$GPGGA,094328.35,5603.96764436,N,00823.33553793,E,4,15,0.7,23.012,M,40.732,M,2.3,0015*7F"""
1477388587380900430,,193399,,1477388587,379974960,'',"""\n$GPHDT,124.430,T*35"""
1477388587435133726,,193400,,1477388587,434952527,'',"""\n$GPGGA,094328.40,5603.96757168,N,00823.33549439,E,4,15,0.7,23.002,M,40.732,M,2.4,0015*7D"""
1477388587437039423,,193401,,1477388587,436687392,'',"""\n$GPHDT,124.898,T*3B"""
1477388587478135616,,193402,,1477388587,477795353,'',"""\n$GPGGA,094328.45,5603.96750077,N,00823.33544687,E,4,15,0.7,23.009,M,40.732,M,2.5,0015*70"""
1477388587479659234,,193403,,1477388587,479484564,'',"""\n$GPHDT,124.406,T*30"""
1477388587529273103,,193404,,1477388587,528494191,'',"""\n$GPGGA,094328.50,5603.96744053,N,00823.33537925,E,4,15,0.7,23.019,M,40.732,M,2.5,0015*75"""
1477388587531802006,,193405,,1477388587,531018777,'',"""\n$GPHDT,123.953,T*3A"""
1477388587577907121,,193406,,1477388587,577537452,'',"""\n$GPGGA,094328.55,5603.96738459,N,00823.33530924,E,4,15,0.7,23.029,M,40.732,M,2.5,0015*70"""
1477388587579667877,,193407,,1477388587,579408049,'',"""\n$GPHDT,124.145,T*32"""
1477388587653319917,,193408,,1477388587,635935240,'',"""\n$GPGGA,094328.60,5603.96733093,N,00823.33523987,E,4,15,0.7,23.031,M,40.732,M,2.6,0015*7E"""
1477388587653330529,,193409,,1477388587,638262432,'',"""\n$GPHDT,126.054,T*31"""
1477388587678133916,,193410,,1477388587,677860963,'',"""\n$GPGGA,094328.65,5603.96727847,N,00823.33519624,E,4,15,0.7,23.042,M,40.732,M,2.7,0015*75"""
1477388587682719081,,193411,,1477388587,679687428,'',"""\n$GPHDT,125.341,T*35"""
1477388587728243216,,193412,,1477388587,727935543,'',"""\n$GPGGA,094328.70,5603.96722716,N,00823.33515617,E,4,15,0.7,23.054,M,40.732,M,2.7,0015*74"""
1477388587729815565,,193413,,1477388587,729486239,'',"""\n$GPHDT,123.445,T*30"""
1477388587778716702,,193414,,1477388587,778510955,'',"""\n$GPGGA,094328.75,5603.96717396,N,00823.33511474,E,4,15,0.7,23.042,M,40.732,M,2.8,0015*70"""
1477388587780362608,,193415,,1477388587,780238449,'',"""\n$GPHDT,123.485,T*3C"""
1477388587834927253,,193416,,1477388587,834476409,'',"""\n$GPGGA,094328.80,5603.96711565,N,00823.33506251,E,4,15,0.7,23.054,M,40.732,M,2.8,0015*76"""
1477388587836731071,,193417,,1477388587,836381887,'',"""\n$GPHDT,124.408,T*3E"""
1477388587878100491,,193418,,1477388587,877903142,'',"""\n$GPGGA,094328.85,5603.96706042,N,00823.33500912,E,4,15,0.7,23.066,M,40.732,M,2.8,0015*7E"""
1477388587880824536,,193419,,1477388587,879737655,'',"""\n$GPHDT,126.464,T*36"""
1477388587933752717,,193420,,1477388587,927560058,'',"""\n$GPGGA,094328.90,5603.96701497,N,00823.33496104,E,4,15,0.7,23.056,M,40.732,M,0.9,0015*70"""
1477388587933758807,,193421,,1477388587,929159915,'',"""\n$GPHDT,125.575,T*34"""
1477388587977963677,,193422,,1477388587,977659000,'',"""\n$GPGGA,094328.95,5603.96696548,N,00823.33490508,E,4,15,0.7,23.052,M,40.732,M,0.9,0015*73"""
1477388587982527757,,193423,,1477388587,980866399,'',"""\n$GPHDT,123.710,T*33"""
1477388588046762133,,193424,,1477388588,46487071,'',"""\n$GPGGA,094329.00,5603.96690612,N,00823.33484090,E,4,15,0.7,23.069,M,40.732,M,1.0,0015*75"""
1477388588050142636,,193425,,1477388588,48117648,'',"""\n$GPHDT,123.173,T*30"""
1477388588078083172,,193426,,1477388588,77701824,'',"""\n$GPGGA,094329.05,5603.96683056,N,00823.33477840,E,4,15,0.7,23.080,M,40.732,M,1.0,0015*7A"""
1477388588080027660,,193427,,1477388588,79808842,'',"""\n$GPHDT,125.192,T*39"""
1477388588130913915,,193428,,1477388588,128765052,'',"""\n$GPGGA,094329.10,5603.96676713,N,00823.33471615,E,4,15,0.7,23.082,M,40.732,M,1.1,0015*79"""
1477388588130937335,,193429,,1477388588,129077801,'',"""\n$GPHDT,126.281,T*3B"""
1477388588180959147,,193430,,1477388588,178649335,'',"""\n$GPGGA,094329.15,5603.96671962,N,00823.33466200,E,4,15,0.7,23.075,M,40.732,M,1.1,0015*7D"""
1477388588181076792,,193431,,1477388588,180336306,'',"""\n$GPHDT,125.083,T*38"""
1477388588236189263,,193432,,1477388588,235323792,'',"""\n$GPGGA,094329.20,5603.96666045,N,00823.33462042,E,4,15,0.7,23.077,M,40.732,M,1.2,0015*70"""
1477388588237160942,,193433,,1477388588,236923410,'',"""\n$GPHDT,124.714,T*30"""
1477388588278467767,,193434,,1477388588,278211068,'',"""\n$GPGGA,094329.25,5603.96660637,N,00823.33455706,E,4,15,0.7,23.076,M,40.732,M,1.3,0015*73"""
1477388588280483823,,193435,,1477388588,279874098,'',"""\n$GPHDT,124.469,T*39"""
1477388588329571216,,193436,,1477388588,328283728,'',"""\n$GPGGA,094329.30,5603.96655553,N,00823.33448006,E,4,15,0.7,23.084,M,40.732,M,1.3,0015*76"""
1477388588330430169,,193437,,1477388588,329946718,'',"""\n$GPHDT,124.438,T*3D"""
1477388588386668615,,193438,,1477388588,378568939,'',"""\n$GPGGA,094329.35,5603.96649924,N,00823.33441738,E,4,15,0.7,23.096,M,40.732,M,1.4,0015*75"""
1477388588386684320,,193439,,1477388588,380547365,'',"""\n$GPHDT,125.536,T*33"""
1477388588434170828,,193440,,1477388588,433928954,'',"""\n$GPGGA,094329.40,5603.96644548,N,00823.33437603,E,4,15,0.7,23.096,M,40.732,M,1.4,0015*74"""
1477388588456668507,,193441,,1477388588,440193032,'',"""\n$GPHDT,125.042,T*35"""
1477388588482665502,,193442,,1477388588,477713609,'',"""\n$GPGGA,094329.45,5603.96639095,N,00823.33432800,E,4,15,0.7,23.105,M,40.732,M,1.5,0015*7C"""
1477388588482719474,,193443,,1477388588,479633649,'',"""\n$GPHDT,124.886,T*34"""
1477388588527917870,,193444,,1477388588,527604931,'',"""\n$GPGGA,094329.50,5603.96633433,N,00823.33428271,E,4,15,0.7,23.115,M,40.732,M,1.5,0015*7C"""
1477388588529390446,,193445,,1477388588,529251787,'',"""\n$GPHDT,124.863,T*3F"""
1477388588592099922,,193446,,1477388588,583515016,'',"""\n$GPGGA,094329.55,5603.96627615,N,00823.33422981,E,4,15,0.7,23.103,M,40.732,M,1.5,0015*73"""
1477388588592174812,,193447,,1477388588,583689720,'',"""\n$GPHDT,125.258,T*3C"""
1477388588636063496,,193448,,1477388588,635808977,'',"""\n$GPGGA,094329.60,5603.96622364,N,00823.33417446,E,4,15,0.7,23.119,M,40.732,M,1.6,0015*7B"""
1477388588642694135,,193449,,1477388588,641390630,'',"""\n$GPHDT,125.388,T*30"""
1477388588712334897,,193450,,1477388588,685834540,'',"""\n$GPGGA,094329.65,5603.96617272,N,00823.33410060,E,4,15,0.7,23.124,M,40.732,M,1.6,0015*77"""
1477388588712354155,,193451,,1477388588,685929585,'',"""\n$GPHDT,124.457,T*34"""
1477388588728438026,,193452,,1477388588,727959457,'',"""\n$GPGGA,094329.70,5603.96611530,N,00823.33404389,E,4,15,0.7,23.132,M,40.732,M,1.7,0015*73"""
1477388588733488926,,193453,,1477388588,729715738,'',"""\n$GPHDT,125.272,T*34"""
1477388588784106599,,193454,,1477388588,778390251,'',"""\n$GPGGA,094329.75,5603.96605642,N,00823.33399414,E,4,15,0.7,23.139,M,40.732,M,1.8,0015*71"""
1477388588784115014,,193455,,1477388588,780056140,'',"""\n$GPHDT,125.269,T*3E"""
1477388588841883658,,193456,,1477388588,833738954,'',"""\n$GPGGA,094329.80,5603.96598920,N,00823.33394503,E,4,15,0.7,23.132,M,40.732,M,1.8,0015*76"""
1477388588841891603,,193457,,1477388588,836520409,'',"""\n$GPHDT,125.455,T*37"""
1477388588881284332,,193458,,1477388588,879178934,'',"""\n$GPGGA,094329.85,5603.96592797,N,00823.33387152,E,4,15,0.7,23.153,M,40.732,M,1.9,0015*7F"""
1477388588881295128,,193459,,1477388588,880114958,'',"""\n$GPHDT,124.408,T*3E"""
1477388588927904807,,193460,,1477388588,927697462,'',"""\n$GPGGA,094329.90,5603.96588450,N,00823.33382070,E,4,15,0.7,23.142,M,40.732,M,1.9,0015*7C"""
1477388588929482929,,193461,,1477388588,929365824,'',"""\n$GPHDT,124.404,T*32"""
1477388588980249218,,193462,,1477388588,977615393,'',"""\n$GPGGA,094329.95,5603.96582498,N,00823.33376170,E,4,15,0.7,23.149,M,40.732,M,2.0,0015*7C"""
1477388588980283979,,193463,,1477388588,979266078,'',"""\n$GPHDT,125.368,T*3E"""
1477388589051631563,,193464,,1477388589,51390361,'',"""\n$GPGGA,094330.00,5603.96577024,N,00823.33370821,E,4,15,0.7,23.156,M,40.732,M,2.0,0015*74"""
1477388589054313884,,193465,,1477388589,53655463,'',"""\n$GPHDT,125.726,T*30"""
1477388589079090149,,193466,,1477388589,78898829,'',"""\n$GPGGA,094330.05,5603.96571617,N,00823.33365988,E,4,15,0.7,23.159,M,40.732,M,2.0,0015*78"""
1477388589080820540,,193467,,1477388589,80577876,'',"""\n$GPHDT,125.499,T*37"""
1477388589127368780,,193468,,1477388589,126821779,'',"""\n$GPGGA,094330.10,5603.96566353,N,00823.33361574,E,4,15,0.7,23.172,M,40.732,M,2.1,0015*7C"""
1477388589128444209,,193469,,1477388589,128329458,'',"""\n$GPHDT,124.903,T*38"""
1477388589180536087,,193470,,1477388589,177720428,'',"""\n$GPGGA,094330.15,5603.96561509,N,00823.33355497,E,4,15,0.7,23.179,M,40.732,M,2.2,0015*74"""
1477388589180545164,,193471,,1477388589,179507626,'',"""\n$GPHDT,124.500,T*37"""
1477388589236092115,,193472,,1477388589,235841805,'',"""\n$GPGGA,094330.20,5603.96556085,N,00823.33348484,E,4,15,0.7,23.174,M,40.732,M,2.2,0015*74"""
1477388589236134234,,193473,,1477388589,235876223,'',"""\n$GPHDT,125.974,T*39"""
1477388589278415726,,193474,,1477388589,278210855,'',"""\n$GPGGA,094330.25,5603.96549736,N,00823.33341647,E,4,15,0.7,23.175,M,40.732,M,2.3,0015*74"""
